[
  {
    "nom": "La loge",
    "latitude": 50.82846,
    "longitude": 4.3656465,
    "ville": "Bruxelles",
    "pays": "Belgique",
    "website": "www.la-loge.be"
  },
  {
    "nom": "Jeune création",
    "latitude": 48.8856256,
    "longitude": 2.3397794,
    "ville": "Paris",
    "pays": "France",
    "website": ""
  },
  {
    "nom": "The ister",
    "latitude": 50.85102699999999,
    "longitude": 4.3406632,
    "ville": "Bruxelles",
    "pays": "Belgique",
    "website": "www.theister.be"
  },
  {
    "nom": "Komplot",
    "latitude": 50.8216088,
    "longitude": 4.3259358,
    "ville": "Bruxelles",
    "pays": "Belgique",
    "website": "www.kmplt.be"
  },
  {
    "nom": "Abilene",
    "latitude": 50.8271735,
    "longitude": 4.352473,
    "ville": "Bruxelles",
    "pays": "Belgique",
    "website": "www.abilenegallery.com"
  },
  {
    "nom": "Etablissement d'en face",
    "latitude": 50.8448272,
    "longitude": 4.359333299999999,
    "ville": "Bruxelles",
    "pays": "Belgique",
    "website": "www.etablissementdenfaceprojects.org"
  },
  {
    "nom": "Le Commissariat",
    "latitude": 48.8674299,
    "longitude": 2.3793209,
    "ville": "Paris",
    "pays": "France",
    "website": "www.lecommissariat.fr/"
  },
  {
    "nom": "Artists Club Coffre-Fort",
    "latitude": 50.8512466,
    "longitude": 4.3411035,
    "ville": "Bruxelles",
    "pays": "Belgique",
    "website": "www.artistsclubcoffrefort.com"
  },
  {
    "nom": "/ 77",
    "latitude": 45.476398,
    "longitude": 9.2178947,
    "ville": "Milano",
    "pays": "Italy",
    "website": "progetto77.tumblr.com"
  },
  {
    "nom": "Station Mir",
    "latitude": 49.1682774,
    "longitude": -0.3527596,
    "ville": "Caen",
    "pays": "France",
    "website": "www.station-mir.com/"
  },
  {
    "nom": "Island",
    "latitude": 50.83547799999999,
    "longitude": 4.3701333,
    "ville": "Bruxelles",
    "pays": "Belgique",
    "website": "www.islandisland.be"
  },
  {
    "nom": "Theophile's Papers",
    "latitude": 50.81800759999999,
    "longitude": 4.341018099999999,
    "ville": "Bruxelles",
    "pays": "Belgique",
    "website": "www.theophilespapers.com"
  },
  {
    "nom": "Rosa Brux",
    "latitude": 50.8404007,
    "longitude": 4.3378064,
    "ville": "Bruxelles",
    "pays": "Belgique",
    "website": "www.rosabrux.org"
  },
  {
    "nom": "HECTOLITER",
    "latitude": 50.851498,
    "longitude": 4.3502667,
    "ville": "Bruxelles",
    "pays": "Belgique",
    "website": "www.hectoliter.be"
  },
  {
    "nom": "Immanence",
    "latitude": 48.8435327,
    "longitude": 2.3203248,
    "ville": "Paris",
    "pays": "France",
    "website": "www.art-immanence.org/"
  },
  {
    "nom": "DEHORS Contemporary Art Window",
    "latitude": 50.8301436,
    "longitude": 4.340218399999999,
    "ville": "Bruxelles",
    "pays": "Belgique",
    "website": "www.dehors-art-window.be"
  },
  {
    "nom": "De La Charge",
    "latitude": 50.83019549999999,
    "longitude": 4.336969799999999,
    "ville": "Bruxelles",
    "pays": "Belgique",
    "website": "www.delacharge.com"
  },
  {
    "nom": "c-o-m-p-o-s-i-t-e",
    "latitude": 50.8532106,
    "longitude": 4.3455343,
    "ville": "Bruxelles",
    "pays": "Belgique",
    "website": "www.c-o-m-p-o-s-i-t-e.com"
  },
  {
    "nom": "Greylight Projects",
    "latitude": 50.8536207,
    "longitude": 4.3673498,
    "ville": "Bruxelles",
    "pays": "Belgique",
    "website": "greylightprojects.org"
  },
  {
    "nom": "HEKLA",
    "latitude": 50.832923,
    "longitude": 4.338071999999999,
    "ville": "Bruxelles",
    "pays": "Belgique",
    "website": "h-e-k-l-a.com"
  },
  {
    "nom": "L'appartement",
    "latitude": 48.8294908,
    "longitude": 2.3296273,
    "ville": "Paris",
    "pays": "France",
    "website": ""
  },
  {
    "nom": "castillo/corrales",
    "latitude": 48.8729399,
    "longitude": 2.3822148,
    "ville": "Paris",
    "pays": "France",
    "website": ""
  },
  {
    "nom": "Lieu d'exposition en voie de déplacement (LEVD)",
    "latitude": 45.7698585,
    "longitude": 4.8342757,
    "ville": "Lyon",
    "pays": "France",
    "website": "levd.net"
  },
  {
    "nom": "mezcla",
    "latitude": 49.4385445,
    "longitude": 1.0992548,
    "ville": "Rouen",
    "pays": "France",
    "website": "www.espacemezcla.net"
  },
  {
    "nom": "BLINDSIDE",
    "latitude": -37.8166672,
    "longitude": 144.966994,
    "ville": "Melbourne",
    "pays": "Australia",
    "website": "http://www.blindside.org.au/"
  },
  {
    "nom": "le collectif  d'en face",
    "latitude": 49.4421237,
    "longitude": 1.1044346,
    "ville": "Rouen",
    "pays": "France",
    "website": "www.collectifdenface.blogspot.fr"
  },
  {
    "nom": "22 rue muller",
    "latitude": 48.8865905,
    "longitude": 2.3459833,
    "ville": "Paris",
    "pays": "France",
    "website": "22ruemuller.com/"
  },
  {
    "nom": "Où",
    "latitude": 43.3030115,
    "longitude": 5.3902033,
    "ville": "Marseille",
    "pays": "France",
    "website": "www.ou-marseille.com/"
  },
  {
    "nom": "Rogertator",
    "latitude": 45.7508862,
    "longitude": 4.8441658,
    "ville": "Lyon",
    "pays": "France",
    "website": "www.rogertator.com/"
  },
  {
    "nom": "Straat galerie",
    "latitude": 43.2912718,
    "longitude": 5.384183999999999,
    "ville": "Marseille",
    "pays": "France",
    "website": "www.straatgalerie.com"
  },
  {
    "nom": "H+",
    "latitude": 45.7709084,
    "longitude": 4.8357956,
    "ville": "Lyon",
    "pays": "France",
    "website": "h-pl.us/"
  },
  {
    "nom": "identité remarquable",
    "latitude": 47.9008668,
    "longitude": 1.9134881,
    "ville": "Orleans",
    "pays": "France",
    "website": "identiteremarquable.over-blog.org/"
  },
  {
    "nom": "KINGS Artist Run",
    "latitude": -37.81614,
    "longitude": 144.955285,
    "ville": "Melbourne",
    "pays": "Australia",
    "website": "www.kingsartistrun.com.au"
  },
  {
    "nom": "Quellkollektiv",
    "latitude": 49.4563825,
    "longitude": 11.030683,
    "ville": "Nürnberg",
    "pays": "Allemagne",
    "website": "quellkollektiv.net"
  },
  {
    "nom": "Zebra3/Buy-sellf",
    "latitude": 44.8118364,
    "longitude": -0.553667,
    "ville": "Bègles",
    "pays": "France",
    "website": "www.buy-sellf.com"
  },
  {
    "nom": "Aperto",
    "latitude": 43.6044643,
    "longitude": 3.8690514,
    "ville": "Montpellier",
    "pays": "France",
    "website": "aperto.free.fr/"
  },
  {
    "nom": "Khiasma",
    "latitude": 48.8754004,
    "longitude": 2.4142955,
    "ville": "Lilas",
    "pays": "France",
    "website": "www.khiasma.net/"
  },
  {
    "nom": "Galerie RDV",
    "latitude": 47.21706990000001,
    "longitude": -1.5457393,
    "ville": "Nantes",
    "pays": "France",
    "website": "galerierdv.com/"
  },
  {
    "nom": "La Station",
    "latitude": 43.7197401,
    "longitude": 7.286630100000001,
    "ville": "Nice",
    "pays": "France",
    "website": "www.lastation.org"
  },
  {
    "nom": "Le Pays où le ciel est toujours bleu",
    "latitude": 47.8995209,
    "longitude": 1.8969266,
    "ville": "Orleans",
    "pays": "France",
    "website": "www.poctb.fr/"
  },
  {
    "nom": "L'inlassable galerie",
    "latitude": 48.8553118,
    "longitude": 2.3397063,
    "ville": "Paris",
    "pays": "France",
    "website": "linlassablegalerie.com/"
  },
  {
    "nom": "Artpool",
    "latitude": 47.51963139999999,
    "longitude": 19.0721805,
    "ville": "Budapest",
    "pays": "Hungary",
    "website": "www.artpool.hu"
  },
  {
    "nom": "PLATEFORME",
    "latitude": 48.85477909999999,
    "longitude": 2.4032762,
    "ville": "Paris",
    "pays": "France",
    "website": "www.plateforme.tk"
  },
  {
    "nom": "GERTRUDE CONTEMPORARY",
    "latitude": -37.806378,
    "longitude": 144.981139,
    "ville": "Fitzroy",
    "pays": "Australia",
    "website": "www.gertrude.org.au"
  },
  {
    "nom": "Nürnberger Eck",
    "latitude": 52.5011842,
    "longitude": 13.3369326,
    "ville": "Berlin",
    "pays": "Allemagne",
    "website": ""
  },
  {
    "nom": "Le générateur",
    "latitude": 48.8160733,
    "longitude": 2.3521448,
    "ville": "Gentilly",
    "pays": "France",
    "website": "legenerateur.com/"
  },
  {
    "nom": "TCB",
    "latitude": -37.811525,
    "longitude": 144.967218,
    "ville": "Melbourne",
    "pays": "Australia",
    "website": "tcbartinc.org.au"
  },
  {
    "nom": "Duplex100m2",
    "latitude": 43.8562586,
    "longitude": 18.4130763,
    "ville": "Sarajevo",
    "pays": "Bosnia And Herzegovina",
    "website": "www.duplex100m2.com"
  },
  {
    "nom": "Borgo Ensemble",
    "latitude": 49.47320999999999,
    "longitude": 11.11618,
    "ville": "Nuremberg",
    "pays": "Allemagne",
    "website": "borgo-ensemble.de"
  },
  {
    "nom": "West Space",
    "latitude": -37.813426,
    "longitude": 144.96708,
    "ville": "Melbourne",
    "pays": "Australia",
    "website": "westspace.org.au"
  },
  {
    "nom": "YARAT Contemporary Art Space",
    "latitude": 40.4376335,
    "longitude": 49.8066865,
    "ville": "Baku",
    "pays": "Azerbaijan",
    "website": "www.yarat.az/"
  },
  {
    "nom": "CONICAL",
    "latitude": -37.79901359999999,
    "longitude": 144.9810915,
    "ville": "Fitzroy",
    "pays": "Australia",
    "website": "www.conical.org.au"
  },
  {
    "nom": "SEA Foundation",
    "latitude": 51.5586433,
    "longitude": 5.0962439,
    "ville": "Tilburg",
    "pays": "Netherlands",
    "website": "www.seafoundation.eu"
  },
  {
    "nom": "Le Hall",
    "latitude": 49.439201,
    "longitude": 1.1321218,
    "ville": "Rouen",
    "pays": "France",
    "website": ""
  },
  {
    "nom": "PRÉFACE",
    "latitude": 48.8643892,
    "longitude": 2.3548747,
    "ville": "Paris",
    "pays": "France",
    "website": "www.preface-gallery.com"
  },
  {
    "nom": "videochronique",
    "latitude": 43.29996,
    "longitude": 5.369086999999999,
    "ville": "Marseille",
    "pays": "France",
    "website": "www.videochroniques.org/"
  },
  {
    "nom": "Bell Street Project Space",
    "latitude": 48.2192063,
    "longitude": 16.3824608,
    "ville": "Vienna",
    "pays": "Austria",
    "website": "www.bellstreet.net"
  },
  {
    "nom": "Ateliê Coletivo 2E1",
    "latitude": -23.5274919,
    "longitude": -46.6768326,
    "ville": "São Paulo",
    "pays": "Brésil",
    "website": "http://doiseum.com/"
  },
  {
    "nom": "Salaisons",
    "latitude": 48.8834649,
    "longitude": 2.430078,
    "ville": "Romainville",
    "pays": "France",
    "website": "www.salaisons.org/"
  },
  {
    "nom": "Museo de Arte Abstracto Español",
    "latitude": 40.0777391,
    "longitude": -2.1284918,
    "ville": "Cuenca",
    "pays": "España",
    "website": "www.march.es/es/cuenca"
  },
  {
    "nom": "periscope",
    "latitude": 47.8084259,
    "longitude": 13.0520726,
    "ville": "Salzburg",
    "pays": "Austria",
    "website": "www.periscope.at"
  },
  {
    "nom": "L'impasse",
    "latitude": 48.8605188,
    "longitude": 2.3656753,
    "ville": "Paris",
    "pays": "France",
    "website": "espace.impasse.free.fr/"
  },
  {
    "nom": "l'Œil de Poisson",
    "latitude": 46.8128136,
    "longitude": -71.2212677,
    "ville": "Québec",
    "pays": "Canada",
    "website": "www.oeildepoisson.com"
  },
  {
    "nom": "Néon",
    "latitude": 45.7706629,
    "longitude": 4.8358349,
    "ville": "Lyon",
    "pays": "France",
    "website": "www.chezneon.fr/"
  },
  {
    "nom": "Autocenter",
    "latitude": 52.5114096,
    "longitude": 13.398194,
    "ville": "Berlin",
    "pays": "Allemagne",
    "website": "www.autocenterart.de"
  },
  {
    "nom": "rum46",
    "latitude": 56.1602535,
    "longitude": 10.2117038,
    "ville": "Århus",
    "pays": "Danemark",
    "website": "http://www.rum46.dk"
  },
  {
    "nom": "Association Art Today",
    "latitude": 42.1374055,
    "longitude": 24.7235219,
    "ville": "Plovdiv ",
    "pays": "Bulgaria",
    "website": "www.arttoday.org"
  },
  {
    "nom": "Open Space",
    "latitude": 48.4250385,
    "longitude": -123.3691147,
    "ville": "Victoria",
    "pays": "Canada",
    "website": "www.openspace.ca"
  },
  {
    "nom": "Angle art contemporain",
    "latitude": 48.87229,
    "longitude": 2.3558842,
    "ville": "Saint Paul Trois Châteaux",
    "pays": "France",
    "website": "www.angle-art.fr/"
  },
  {
    "nom": "Triangle",
    "latitude": 43.3096573,
    "longitude": 5.390346,
    "ville": "Marseille",
    "pays": "France",
    "website": "www.trianglefrance.org/"
  },
  {
    "nom": "Para Site",
    "latitude": 22.291425,
    "longitude": 114.2089164,
    "ville": "Hong Kong",
    "pays": "Chine",
    "website": "www.para-site.org.hk"
  },
  {
    "nom": "EDEL EXTRA",
    "latitude": 49.44996,
    "longitude": 11.05232,
    "ville": "Nürnberg",
    "pays": "Allemagne",
    "website": "edelextra.biz"
  },
  {
    "nom": "Studio Voltaire",
    "latitude": 51.5830302,
    "longitude": 0.0267553,
    "ville": "London",
    "pays": "United Kingdoms",
    "website": "www.studiovoltaire.org"
  },
  {
    "nom": "White Columns",
    "latitude": 40.81651919999999,
    "longitude": -73.9465432,
    "ville": "New York",
    "pays": "United States",
    "website": "www.whitecolumns.org"
  },
  {
    "nom": "The Artists Village (TAV)",
    "latitude": 1.307276,
    "longitude": 103.855824,
    "ville": "Singapore",
    "pays": "Singapore",
    "website": "http://www.tav.org.sg/"
  },
  {
    "nom": "URGENT PARADISE",
    "latitude": 46.5239305,
    "longitude": 6.637887099999999,
    "ville": "Lausanne",
    "pays": "Switzerland",
    "website": "www.urgentparadise.ch"
  },
  {
    "nom": "Infozone",
    "latitude": 48.8570453,
    "longitude": 2.358909,
    "ville": "Paris",
    "pays": "France",
    "website": ""
  },
  {
    "nom": "PARIS PROJECT ROOM",
    "latitude": 48.8713089,
    "longitude": 2.3515143,
    "ville": "Paris",
    "pays": "France",
    "website": "parisprojectroom.free.fr"
  },
  {
    "nom": "AMAVADA",
    "latitude": 49.1847205,
    "longitude": -0.3512325,
    "ville": "Caen",
    "pays": "France",
    "website": "www.amavada.com/"
  },
  {
    "nom": "Entre deux",
    "latitude": 47.2118546,
    "longitude": -1.5506484,
    "ville": "Nantes",
    "pays": "France",
    "website": "www.entre-deux.org"
  },
  {
    "nom": "Irmavep Club",
    "latitude": 48.8825262,
    "longitude": 2.3451923,
    "ville": "Paris",
    "pays": "France",
    "website": "www.irmavepclub.com/"
  },
  {
    "nom": "PUBLIC",
    "latitude": 48.86217389999999,
    "longitude": 2.3534291,
    "ville": "Paris",
    "pays": "France",
    "website": ""
  },
  {
    "nom": "La générale en manufacture",
    "latitude": 48.8224777,
    "longitude": 2.2067923,
    "ville": "Sevres",
    "pays": "France",
    "website": "www.atelierpier.com/atelier_pier/intro.html"
  },
  {
    "nom": "ARTos",
    "latitude": 35.166667,
    "longitude": 33.366667,
    "ville": "Nicosia",
    "pays": "Cyprus",
    "website": "www.artosfoundation.org"
  },
  {
    "nom": "Zeta Gallery",
    "latitude": 41.3192646,
    "longitude": 19.81863,
    "ville": "Tirana",
    "pays": "Albanie",
    "website": "www.qendrazeta.com"
  },
  {
    "nom": "LOOP",
    "latitude": 37.5637561,
    "longitude": 126.9084211,
    "ville": "Seoul",
    "pays": "Korea",
    "website": "galleryloop.com"
  },
  {
    "nom": "L'espace d'en bas",
    "latitude": 48.8758881,
    "longitude": 2.3481165,
    "ville": "Paris",
    "pays": "France",
    "website": "www.espacedenbas.com/"
  },
  {
    "nom": "attrape-couleurs",
    "latitude": 45.7981144,
    "longitude": 4.830147699999999,
    "ville": "Lyon",
    "pays": "France",
    "website": "www.attrape-couleurs.com/"
  },
  {
    "nom": "LIEU-COMMUN",
    "latitude": 43.6169027,
    "longitude": 1.4561539,
    "ville": "Toulouse",
    "pays": "France",
    "website": "www.lieu-commun.fr/"
  },
  {
    "nom": "STANDARDS",
    "latitude": 48.11201699999999,
    "longitude": -1.684087,
    "ville": "Rennes",
    "pays": "France",
    "website": "www.standards-expositions.com"
  },
  {
    "nom": "Live Club Ssam (SSamzie Space)",
    "latitude": 37.5538904,
    "longitude": 126.9296199,
    "ville": "Seoul",
    "pays": "Korea",
    "website": "www.ssamziespace.com"
  },
  {
    "nom": "GRIMMUSEUM",
    "latitude": 52.49112,
    "longitude": 13.41236,
    "ville": "Berlin",
    "pays": "Allemagne",
    "website": "www.grimmuseum.com"
  },
  {
    "nom": "General Public",
    "latitude": 52.53389,
    "longitude": 13.41232,
    "ville": "Berlin",
    "pays": "Allemagne",
    "website": "www.generalpublic.de"
  },
  {
    "nom": "G39",
    "latitude": 51.5619471,
    "longitude": -3.2765136,
    "ville": "Cardiff",
    "pays": "Wales",
    "website": "www.g39.org"
  },
  {
    "nom": "Gängeviertel",
    "latitude": 53.5554895,
    "longitude": 9.9832986,
    "ville": "Hambourg",
    "pays": "Allemagne",
    "website": "http://das-gaengeviertel.info/"
  },
  {
    "nom": "POOL",
    "latitude": 37.6063966,
    "longitude": 126.9591841,
    "ville": "Seoul",
    "pays": "Korea",
    "website": "www.altpool.org"
  },
  {
    "nom": "Transmission",
    "latitude": 55.8566157,
    "longitude": -4.2466288,
    "ville": "Glasgow",
    "pays": "Scotland",
    "website": "www.transmissiongallery.org"
  },
  {
    "nom": "Collective",
    "latitude": 55.9541277,
    "longitude": -3.1854115,
    "ville": "Edinburgh",
    "pays": "Scotland",
    "website": "www.collectivegallery.net"
  },
  {
    "nom": "Brain Factory",
    "latitude": 37.5792141,
    "longitude": 126.9736691,
    "ville": "Seoul",
    "pays": "Korea",
    "website": ""
  },
  {
    "nom": "Espace 29",
    "latitude": 44.8405751,
    "longitude": -0.5844494000000001,
    "ville": "Bordeaux",
    "pays": "France",
    "website": "www.espace29.com/"
  },
  {
    "nom": "L'H du Siège",
    "latitude": 50.3521919,
    "longitude": 3.5204502,
    "ville": "Valenciennes",
    "pays": "France",
    "website": "www.hdusiege.org"
  },
  {
    "nom": "artellewa",
    "latitude": 30.0509014,
    "longitude": 31.1867283,
    "ville": "Giza",
    "pays": "Egypt",
    "website": "artellewa.com"
  },
  {
    "nom": "AFTER THE BUTCHER",
    "latitude": 52.50398560000001,
    "longitude": 13.4789768,
    "ville": "Berlin",
    "pays": "Allemagne",
    "website": "www.after-the-butcher.de/"
  },
  {
    "nom": "Bootlab",
    "latitude": 52.54386530000001,
    "longitude": 13.3728408,
    "ville": "Berlin",
    "pays": "Allemagne",
    "website": "www.bootlab.org"
  },
  {
    "nom": "Ed Video",
    "latitude": 43.5462233,
    "longitude": -80.2516658,
    "ville": "Guelph",
    "pays": "Canada",
    "website": "www.edvideo.org"
  },
  {
    "nom": "Alexandria Contemporary Arts Forum (ACAF)",
    "latitude": 31.2000924,
    "longitude": 29.9187387,
    "ville": "Alexandria",
    "pays": "Egypt",
    "website": "www.acafspace.org"
  },
  {
    "nom": "40mcube",
    "latitude": 48.1097781,
    "longitude": -1.6660659,
    "ville": "Rennes",
    "pays": "France",
    "website": "www.40mcube.org"
  },
  {
    "nom": "Diagonale",
    "latitude": 45.5016889,
    "longitude": -73.567256,
    "ville": "Montréal",
    "pays": "Canada",
    "website": "artdiagonale.org"
  },
  {
    "nom": "La Maudite",
    "latitude": 48.8731565,
    "longitude": 2.382615,
    "ville": "Paris",
    "pays": "France",
    "website": "www.lamaudite.net"
  },
  {
    "nom": "Interface appartement /galerie",
    "latitude": 47.3192607,
    "longitude": 5.0463837,
    "ville": "Dijon",
    "pays": "France",
    "website": "www.interface-art.com"
  },
  {
    "nom": "À Suivre...",
    "latitude": 44.8199429,
    "longitude": -0.5767245,
    "ville": "Bordeaux",
    "pays": "France",
    "website": "www.asuivre.fr/"
  },
  {
    "nom": "CP5/Collectif Curry Vavart",
    "latitude": 48.88992469999999,
    "longitude": 2.3642082,
    "ville": "Paris",
    "pays": "France",
    "website": "www.curry-vavart.com/cp5"
  },
  {
    "nom": "France Fiction",
    "latitude": 48.863663,
    "longitude": 2.36312,
    "ville": "Paris",
    "pays": "France",
    "website": "http://france-fiction.net"
  },
  {
    "nom": "MOCA / Museum of Conceptual Art",
    "latitude": 37.7865395,
    "longitude": -122.402393,
    "ville": "San Francisco",
    "pays": "United States",
    "website": ""
  },
  {
    "nom": "In extenso",
    "latitude": 45.7791582,
    "longitude": 3.0847122,
    "ville": "Clermont Ferrand",
    "pays": "France",
    "website": "www.inextensoasso.com"
  },
  {
    "nom": "Gasworks",
    "latitude": 51.4851026,
    "longitude": -0.1156275,
    "ville": "London",
    "pays": "United Kingdoms",
    "website": "www.gasworks.org.uk"
  },
  {
    "nom": "INTERIOR and the collectors",
    "latitude": 45.7657661,
    "longitude": 4.831961499999999,
    "ville": "Lyon",
    "pays": "France",
    "website": "interiorandthecollectors.com/"
  },
  {
    "nom": "L'épicerie",
    "latitude": 48.8680689,
    "longitude": 2.4026067,
    "ville": "Paris",
    "pays": "France",
    "website": ""
  },
  {
    "nom": "La Confection Idéale",
    "latitude": 50.6948764,
    "longitude": 3.1487007,
    "ville": "Tourcoing",
    "pays": "France",
    "website": "www.laconfectionideale.fr"
  },
  {
    "nom": "Syndicat Potentiel Strasbourg (Le Faubourg)",
    "latitude": 48.5791068,
    "longitude": 7.7532675,
    "ville": "Strasbourg",
    "pays": "France",
    "website": "syndicatpotentiel.free.fr"
  },
  {
    "nom": "One gee in fog",
    "latitude": 46.1943935,
    "longitude": 6.1950389,
    "ville": "Chêne Bourg",
    "pays": "Switzerland",
    "website": "www.onegeeinfog.com"
  },
  {
    "nom": "Peking",
    "latitude": 52.5383347,
    "longitude": 13.408978,
    "ville": "Berlin",
    "pays": "Allemagne",
    "website": ""
  },
  {
    "nom": "Wohnmaschine",
    "latitude": 52.52625219999999,
    "longitude": 13.3932848,
    "ville": "Berlin",
    "pays": "Allemagne",
    "website": ""
  },
  {
    "nom": "Love WG - Art connection",
    "latitude": 52.5244493,
    "longitude": 13.4062744,
    "ville": "Berlin",
    "pays": "Allemagne",
    "website": ""
  },
  {
    "nom": "ChezKit",
    "latitude": 48.8994296,
    "longitude": 2.3950205,
    "ville": "Pantin",
    "pays": "France",
    "website": "www.chezkit.fr"
  },
  {
    "nom": "MAISON DE L'IMAGE",
    "latitude": 36.8521017,
    "longitude": 10.1778233,
    "ville": "Tunis",
    "pays": "Tunisie",
    "website": "www.maisonimage.tn "
  },
  {
    "nom": "MILLE FEUILLES",
    "latitude": 36.8491334,
    "longitude": 10.3262543,
    "ville": "La Marsa",
    "pays": "Tunisie",
    "website": "www.librairiemillefeuilles.com"
  },
  {
    "nom": "Western Front",
    "latitude": 49.26353,
    "longitude": -123.09862,
    "ville": "Vancouver",
    "pays": "Canada",
    "website": "front.bc.ca"
  },
  {
    "nom": "B'Chira Art Center",
    "latitude": 36.9245069,
    "longitude": 10.0471549,
    "ville": "Sidi Thabet",
    "pays": "Tunisie",
    "website": "www.bchirartcenter.com"
  },
  {
    "nom": "EP Galerie Jürgen Schweinebraden",
    "latitude": 52.54335099999999,
    "longitude": 13.4218134,
    "ville": "Berlin",
    "pays": "Allemagne",
    "website": "www.ep-verlag-schweinebraden.de"
  },
  {
    "nom": "Keramikwerkstatt von Wilfriede Maaß",
    "latitude": 52.55035789999999,
    "longitude": 13.4077812,
    "ville": "Berlin",
    "pays": "Allemagne",
    "website": ""
  },
  {
    "nom": "ZABRISKIE POINT",
    "latitude": 46.19780000000001,
    "longitude": 6.14264,
    "ville": "Genève",
    "pays": "Switzerland",
    "website": "www.zabriskiepoint.ch"
  },
  {
    "nom": "Closet",
    "latitude": 43.2991736,
    "longitude": 5.3683285,
    "ville": "Marseille",
    "pays": "France",
    "website": "www.facebook.com/closetgalerie/"
  },
  {
    "nom": "Treize",
    "latitude": 48.867456,
    "longitude": 2.3793225,
    "ville": "Paris",
    "pays": "France",
    "website": "www.treize.site"
  },
  {
    "nom": "Deborah Bowmann",
    "latitude": 50.832088,
    "longitude": 4.3434478,
    "ville": "Bruxelles",
    "pays": "Belgique",
    "website": "deborahbowmann.com"
  },
  {
    "nom": "Park",
    "latitude": 51.5658086,
    "longitude": 5.079237099999999,
    "ville": "Tilburg",
    "pays": "Netherlands",
    "website": "park013.nl"
  },
  {
    "nom": "La GAD MARSEILLE",
    "latitude": 43.3044715,
    "longitude": 5.392474399999999,
    "ville": "Marseille",
    "pays": "France",
    "website": "lagad.eu"
  },
  {
    "nom": "The Number Shop",
    "latitude": 55.94438419999999,
    "longitude": -3.1806906,
    "ville": "Edinburgh",
    "pays": "Scotland",
    "website": "thenumbershop.org/"
  },
  {
    "nom": "Printed Matter, Inc.",
    "latitude": 40.750941,
    "longitude": -74.00644799999999,
    "ville": "New York",
    "pays": "United States",
    "website": "www.printedmatter.org"
  },
  {
    "nom": "La Couleuvre",
    "latitude": 48.9083877,
    "longitude": 2.3312149,
    "ville": "Saint Ouen",
    "pays": "France",
    "website": "lacouleuvre.blogspot.fr/"
  },
  {
    "nom": "ECHANGEUR22",
    "latitude": 44.0540543,
    "longitude": 4.6997927,
    "ville": "Saint Laurent Des Arbres",
    "pays": "France",
    "website": "echangeur22.com"
  },
  {
    "nom": "La Mamelle/Art Com",
    "latitude": 37.7749295,
    "longitude": -122.4194155,
    "ville": "San Francisco",
    "pays": "United States",
    "website": ""
  },
  {
    "nom": "Fer de Lance",
    "latitude": 46.5161576,
    "longitude": 6.6353048,
    "ville": "Lausanne",
    "pays": "Switzerland",
    "website": "fdel.cc"
  },
  {
    "nom": "Ecart",
    "latitude": 46.2094038,
    "longitude": 6.1488862,
    "ville": "Genève",
    "pays": "Switzerland",
    "website": ""
  },
  {
    "nom": "Zona",
    "latitude": 43.7646092,
    "longitude": 11.2584082,
    "ville": "Florence",
    "pays": "Italy",
    "website": "zonanonprofitartspace.it"
  },
  {
    "nom": "HIT",
    "latitude": 46.2101883,
    "longitude": 6.1406021,
    "ville": "Genève",
    "pays": "Switzerland",
    "website": "espace-hit.ch"
  },
  {
    "nom": "Espace Labo",
    "latitude": 46.2014176,
    "longitude": 6.131169,
    "ville": "Geneve",
    "pays": "Switzerland",
    "website": "espacelabo.net"
  },
  {
    "nom": "PILOTENKUECHE",
    "latitude": 51.32653699999999,
    "longitude": 12.3182245,
    "ville": "Leipzig",
    "pays": "Allemagne",
    "website": "westside.pilotenkueche.net"
  },
  {
    "nom": "ruimte Caesuur",
    "latitude": 51.5012082,
    "longitude": 3.6113838,
    "ville": "Middelburg ",
    "pays": "Netherlands",
    "website": "caesuur.nu"
  },
  {
    "nom": "Club solo",
    "latitude": 51.5884385,
    "longitude": 4.7831986,
    "ville": "Breda",
    "pays": "Netherlands",
    "website": "http://clubsolo.nl/"
  },
  {
    "nom": "JULIO",
    "latitude": 48.86782720000001,
    "longitude": 2.3910831,
    "ville": "Paris",
    "pays": "France",
    "website": "spaceinprogress.com"
  },
  {
    "nom": "VARIAe",
    "latitude": 45.4380426,
    "longitude": 4.387765,
    "ville": "Saint Étienne",
    "pays": "France",
    "website": "espacevariae.wordpress.com"
  },
  {
    "nom": "Takeawaygallery",
    "latitude": 41.8932638,
    "longitude": 12.4773504,
    "ville": "Rome",
    "pays": "Italy",
    "website": "www.takeawaygalleryroma.altervista.org/Roma/"
  },
  {
    "nom": "MOSQUITO COAST FACTORY",
    "latitude": 47.41225,
    "longitude": -1.96763,
    "ville": "Campbon",
    "pays": "France",
    "website": "www.mosquitocoastfactory.com"
  },
  {
    "nom": "Flip",
    "latitude": 40.8581659,
    "longitude": 14.2603975,
    "ville": "Napoli",
    "pays": "Italy",
    "website": "www.flipprojectspace.com"
  },
  {
    "nom": "TRIPODE",
    "latitude": 47.18416149999999,
    "longitude": -1.562164,
    "ville": "Rezé",
    "pays": "France",
    "website": "tripode.fr"
  },
  {
    "nom": "Arprim",
    "latitude": 45.5058167,
    "longitude": -73.5669017,
    "ville": "Montréal (Québec)",
    "pays": "Canada",
    "website": "www.arprim.org"
  },
  {
    "nom": "MARS",
    "latitude": 45.4894291,
    "longitude": 9.219282,
    "ville": "Milano",
    "pays": "Italy",
    "website": "www.marsmilano.com"
  },
  {
    "nom": "63rd - 77th STEPS",
    "latitude": 39.8848807,
    "longitude": 18.3332463,
    "ville": "Bari",
    "pays": "Italy",
    "website": "www.63rd77thsteps.com "
  },
  {
    "nom": "TARS",
    "latitude": 13.7174979,
    "longitude": 100.5905666,
    "ville": "Bangkok",
    "pays": "Thailand",
    "website": "www.tarsgallery.com"
  },
  {
    "nom": "CONA",
    "latitude": 19.2379305,
    "longitude": 72.87321039999999,
    "ville": "Mumbai",
    "pays": "Inde",
    "website": "conaprojects.blogspot.fr"
  },
  {
    "nom": "The Lab",
    "latitude": 37.7653987,
    "longitude": -122.4185028,
    "ville": "San Francisco",
    "pays": "United States",
    "website": "www.thelab.org"
  },
  {
    "nom": "Les Limbes",
    "latitude": 45.4337599,
    "longitude": 4.3935672,
    "ville": "Saint Étienne",
    "pays": "France",
    "website": "leslimbes.wordpress.com"
  },
  {
    "nom": "Enterprise Projects",
    "latitude": 37.9854764,
    "longitude": 23.7638392,
    "ville": "Athens",
    "pays": "Grèce",
    "website": "enterprise-projects.com"
  },
  {
    "nom": "TRIPLA",
    "latitude": 44.50341,
    "longitude": 11.34525,
    "ville": "Bologna",
    "pays": "Italy",
    "website": "spaziotripla.com"
  },
  {
    "nom": "Clovis XV",
    "latitude": 50.848102,
    "longitude": 4.3820554,
    "ville": "Bruxelles",
    "pays": "Belgique",
    "website": "clovisxv.com"
  },
  {
    "nom": "L'Oeil de boeuf",
    "latitude": 45.7694975,
    "longitude": 4.832067599999999,
    "ville": "Lyon",
    "pays": "France",
    "website": "atelier-oeildeboeuf.com"
  },
  {
    "nom": "TOPO",
    "latitude": 45.5270505,
    "longitude": -73.5953186,
    "ville": "Montréal (Québec)",
    "pays": "Canada",
    "website": "www.agencetopo.qc.ca"
  },
  {
    "nom": "SHED",
    "latitude": 49.48740799999999,
    "longitude": 1.0420103,
    "ville": "Notre Dame De Bondeville",
    "pays": "France",
    "website": "www.le-shed.com"
  },
  {
    "nom": "Art City",
    "latitude": 49.88541499999999,
    "longitude": -97.155222,
    "ville": "Manitoba",
    "pays": "Canada",
    "website": "artcityinc.com"
  },
  {
    "nom": "Bruit de fond",
    "latitude": 43.300158,
    "longitude": 5.3874521,
    "ville": "Marseille",
    "pays": "France",
    "website": "bbruitdefondd.tumblr.com"
  },
  {
    "nom": "Ground",
    "latitude": 35.15105690000001,
    "longitude": 33.3121347,
    "ville": "Nicosia",
    "pays": "Cyprus",
    "website": "groundartistrunspace.tumblr.com"
  },
  {
    "nom": "*DUUU",
    "latitude": 48.8938489,
    "longitude": 2.39026,
    "ville": "Paris",
    "pays": "France",
    "website": "www.duuuradio.fr"
  },
  {
    "nom": "Dos Mares",
    "latitude": 43.3031671,
    "longitude": 5.413785499999999,
    "ville": "Marseille",
    "pays": "France",
    "website": "www.2mares.org"
  },
  {
    "nom": "El Mentidero",
    "latitude": 4.606332,
    "longitude": -74.0699348,
    "ville": "Bogotá",
    "pays": "Colombia",
    "website": "www.mentiderobogota.com"
  },
  {
    "nom": "Spazio In Situ",
    "latitude": 41.8684642,
    "longitude": 12.6537749,
    "ville": "Rome",
    "pays": "Italy",
    "website": "www.spazioinsitu.it"
  },
  {
    "nom": "Palette Terre",
    "latitude": 48.8614577,
    "longitude": 2.3802947,
    "ville": "Paris",
    "pays": "France",
    "website": "www.paletteterre.com"
  },
  {
    "nom": "Les Ateliers Wonder/Liebert",
    "latitude": 48.8608467,
    "longitude": 2.4151803,
    "ville": "Bagnolet",
    "pays": "France",
    "website": "www.lewonder.com"
  },
  {
    "nom": "Gallery 44",
    "latitude": 43.6478139,
    "longitude": -79.3945565,
    "ville": "Toronto",
    "pays": "Canada",
    "website": "gallery44.org"
  },
  {
    "nom": "CAPSULE 38",
    "latitude": 47.5958952,
    "longitude": 1.3193867,
    "ville": "Blois",
    "pays": "France",
    "website": "cap38.wordpress.com"
  },
  {
    "nom": "Fructôse",
    "latitude": 51.0346828,
    "longitude": 2.3657555,
    "ville": "Dunkerque",
    "pays": "France",
    "website": "www.fructosefructose.fr"
  },
  {
    "nom": "METALAB / RETICULAR",
    "latitude": 45.4314526,
    "longitude": 4.3934194,
    "ville": "Saint Étienne",
    "pays": "France",
    "website": "metalabartsnumeriques.wordpress.com"
  },
  {
    "nom": "Institute for Provocation (IFP)",
    "latitude": 39.938426,
    "longitude": 116.4013,
    "ville": "Beijing",
    "pays": "Chine",
    "website": "www.iprovoke.org"
  },
  {
    "nom": "W",
    "latitude": 48.9040952,
    "longitude": 2.3958366,
    "ville": "Pantin",
    "pays": "France",
    "website": "www.w-pantin.xyz"
  },
  {
    "nom": "221A",
    "latitude": 49.2786808,
    "longitude": -123.0988811,
    "ville": "Vancouver",
    "pays": "Canada",
    "website": "221a.ca"
  },
  {
    "nom": "3e impérial",
    "latitude": 45.3969667,
    "longitude": -72.7265548,
    "ville": "Granby (Québec)",
    "pays": "Canada",
    "website": "3e-imperial.org"
  },
  {
    "nom": "ACC/CCA",
    "latitude": 46.32675649999999,
    "longitude": -79.8839335,
    "ville": "Ontario",
    "pays": "Canada",
    "website": "www.acc-cca.com"
  },
  {
    "nom": "aceartinc.",
    "latitude": 49.897407,
    "longitude": -97.142472,
    "ville": "Manitoba",
    "pays": "Canada",
    "website": "www.aceart.org"
  },
  {
    "nom": "Action Art Actuel (AAA)",
    "latitude": 45.3059026,
    "longitude": -73.2506018,
    "ville": "Saint Jean Sur Richelieu (Québec)",
    "pays": "Canada",
    "website": "action-art-actuel.org"
  },
  {
    "nom": "AdMare",
    "latitude": 47.372436,
    "longitude": -61.9100897,
    "ville": "L'Étang Du Nord (Québec)",
    "pays": "Canada",
    "website": "www.admare.org"
  },
  {
    "nom": "Atelier de l’Île",
    "latitude": 46.0295713,
    "longitude": -74.2052865,
    "ville": "Val David, Québec",
    "pays": "Canada",
    "website": "atelier.qc.ca"
  },
  {
    "nom": "ARTsPLACE",
    "latitude": 44.7421754,
    "longitude": -65.5152834,
    "ville": "Annapolis Royal",
    "pays": "Canada",
    "website": "arcac-artsplace.weebly.com"
  },
  {
    "nom": "Alberta Printmakers (A/P)",
    "latitude": 51.0174954,
    "longitude": -114.0526268,
    "ville": "Alberta",
    "pays": "Canada",
    "website": "www.albertaprintmakers.com"
  },
  {
    "nom": "Arnica",
    "latitude": 50.6752922,
    "longitude": -120.339401,
    "ville": "British Columbia",
    "pays": "Canada",
    "website": "www.arnicaartistruncentre.ca"
  },
  {
    "nom": "Artexte",
    "latitude": 45.5100287,
    "longitude": -73.56338099999999,
    "ville": "Montréal (Québec)",
    "pays": "Canada",
    "website": "directory.arca.art"
  },
  {
    "nom": "AKA",
    "latitude": 52.126351,
    "longitude": -106.6759527,
    "ville": "Saskatchewan",
    "pays": "Canada",
    "website": "akaartistrun.com"
  },
  {
    "nom": "articule",
    "latitude": 45.5208705,
    "longitude": -73.5971313,
    "ville": "Montréal (Québec)",
    "pays": "Canada",
    "website": "www.articule.org"
  },
  {
    "nom": "Chiffonnier",
    "latitude": 47.322115,
    "longitude": 5.0544616,
    "ville": "Dijon",
    "pays": "France",
    "website": "@atelierchiffonnier"
  },
  {
    "nom": "Art Metropole",
    "latitude": 43.6497812,
    "longitude": -79.431778,
    "ville": "Toronto",
    "pays": "Canada",
    "website": "artmetropole.com"
  },
  {
    "nom": "Artcite Inc.",
    "latitude": 42.3172046,
    "longitude": -83.040177,
    "ville": "Ontario",
    "pays": "Canada",
    "website": "artcite.ca"
  },
  {
    "nom": "Super F-97",
    "latitude": 45.7718853,
    "longitude": 4.888271,
    "ville": "Villeurbanne",
    "pays": "France",
    "website": "@superF97"
  },
  {
    "nom": "ATELIER D’ESTAMPE IMAGO",
    "latitude": 46.0932499,
    "longitude": -64.7780092,
    "ville": "Moncton",
    "pays": "Canada",
    "website": "www.atelierimago.com"
  },
  {
    "nom": "Atelier Presse Papier",
    "latitude": 46.3409164,
    "longitude": -72.5406807,
    "ville": "Trois Rivières",
    "pays": "Canada",
    "website": "www.pressepapier.ca"
  },
  {
    "nom": "ARTSPACE",
    "latitude": 44.3051916,
    "longitude": -78.32296690000001,
    "ville": "Ontario",
    "pays": "Canada",
    "website": "artspace-arc.org"
  },
  {
    "nom": "Artspeak",
    "latitude": 49.2827748,
    "longitude": -123.1044406,
    "ville": "Vancouver",
    "pays": "Canada",
    "website": "artspeak.ca"
  },
  {
    "nom": "Atelier Circulaire",
    "latitude": 45.5270506,
    "longitude": -73.5953186,
    "ville": "Montréal (Québec)",
    "pays": "Canada",
    "website": "atelier-circulaire.qc.ca"
  },
  {
    "nom": "Atelier Silex",
    "latitude": 46.3485638,
    "longitude": -72.5484704,
    "ville": "Trois Rivières",
    "pays": "Canada",
    "website": "www.ateliersilex.info"
  },
  {
    "nom": "IF",
    "latitude": 45.831205,
    "longitude": 1.2673751,
    "ville": "Limoges",
    "pays": "France",
    "website": "www.i-f.fr"
  },
  {
    "nom": "GOSWELL ROAD",
    "latitude": 48.8714825,
    "longitude": 2.3515409,
    "ville": "Paris",
    "pays": "France",
    "website": "goswellroad.com"
  },
  {
    "nom": "apes&castles",
    "latitude": 50.8402043,
    "longitude": 4.3372585,
    "ville": "Bruxelles",
    "pays": "Belgique",
    "website": "apesandcastles.com"
  },
  {
    "nom": "Grande Surface",
    "latitude": 50.83094759999999,
    "longitude": 4.3352948,
    "ville": "Saint Gilles",
    "pays": "Belgique",
    "website": "www.facebook.com/grandesurface/"
  },
  {
    "nom": "La Civette",
    "latitude": 49.4453137,
    "longitude": 1.1271913,
    "ville": "Rouen",
    "pays": "France",
    "website": "@lacivette76"
  },
  {
    "nom": "Mutatio",
    "latitude": 47.2094913,
    "longitude": -1.5498509,
    "ville": "Nantes",
    "pays": "France",
    "website": "mutatio.fr"
  },
  {
    "nom": "ERRATUM",
    "latitude": 52.4935933,
    "longitude": 13.4194231,
    "ville": "Berlin",
    "pays": "Allemagne",
    "website": "www.erratumgalerie.de"
  },
  {
    "nom": "3 137",
    "latitude": 37.9874529,
    "longitude": 23.7432796,
    "ville": "Athens",
    "pays": "Grèce",
    "website": "www.3137.gr"
  },
  {
    "nom": "e/lAboRaTory",
    "latitude": 48.848748,
    "longitude": 2.3404013,
    "ville": "Paris",
    "pays": "France",
    "website": "www.elaboratory.space"
  },
  {
    "nom": "MAISON PIEUVRE",
    "latitude": 13.7287396,
    "longitude": 100.5815861,
    "ville": "Bangkok",
    "pays": "Thailand",
    "website": "maisonpieuvre.wixsite.com"
  },
  {
    "nom": "Paradise",
    "latitude": 47.2107383,
    "longitude": -1.5507077,
    "ville": "Nantes",
    "pays": "France",
    "website": "www.galerie-paradise.fr"
  },
  {
    "nom": "BIKINI",
    "latitude": 45.7509433,
    "longitude": 4.8439891,
    "ville": "Lyon",
    "pays": "France",
    "website": "www.facebook.com/bikini-espace-dart-contemporain-241793752552285"
  },
  {
    "nom": "in.plano",
    "latitude": 48.9375769,
    "longitude": 2.3373361,
    "ville": "Ile Saint Denis",
    "pays": "France",
    "website": "www.inplano.xyz"
  },
  {
    "nom": "Poteaux d'angle",
    "latitude": 47.0824663,
    "longitude": 2.3953301,
    "ville": "Bourges",
    "pays": "France",
    "website": "https://www.instagram.com/poteauxdangle/?hl=fr"
  },
  {
    "nom": "COHERENT",
    "latitude": 50.8344894,
    "longitude": 4.361479,
    "ville": "Bruxelles",
    "pays": "Belgique",
    "website": "www.coherent-brussels.com"
  },
  {
    "nom": "Studio Delta",
    "latitude": 50.6882802,
    "longitude": 3.1887768,
    "ville": "Roubaix",
    "pays": "France",
    "website": "studio2delta.com"
  },
  {
    "nom": "KABINET",
    "latitude": 50.8709493,
    "longitude": 4.3615558,
    "ville": "Bruxelles",
    "pays": "Belgique",
    "website": "lekabinetbxl.wordpress.com"
  },
  {
    "nom": "C5",
    "latitude": 50.8460488,
    "longitude": 4.355659999999999,
    "ville": "Bruxelles",
    "pays": "Belgique",
    "website": "c5space.com"
  },
  {
    "nom": "Botschaft",
    "latitude": 52.5109255,
    "longitude": 13.3875418,
    "ville": "Berlin",
    "pays": "Allemagne",
    "website": "www.botschaft-berlin.org/en/texts/strategyandparty"
  },
  {
    "nom": "Openspace Bae",
    "latitude": 35.1565916,
    "longitude": 129.1784529,
    "ville": "Busan",
    "pays": "Korea",
    "website": "www.spacebae.com"
  },
  {
    "nom": "Ladenatelier Scheib",
    "latitude": 52.5410038,
    "longitude": 13.4241116,
    "ville": "Berlin ",
    "pays": "Allemagne",
    "website": ""
  },
  {
    "nom": "Ateliers Vortex",
    "latitude": 47.3018063,
    "longitude": 5.0350503,
    "ville": "Dijon",
    "pays": "France",
    "website": "lesateliersvortex.com"
  },
  {
    "nom": "Rotgrün (rg) Sredzkistraße 64",
    "latitude": 52.53727,
    "longitude": 13.42208,
    "ville": "Berlin",
    "pays": "Allemagne",
    "website": "www.quobo.de/Quobo/seitendeutsch/archiv/archiv80er/80sredzki.html"
  },
  {
    "nom": "SOX",
    "latitude": 52.5012346,
    "longitude": 13.4186659,
    "ville": "Berlin",
    "pays": "Allemagne",
    "website": "www.sox-berlin.com"
  },
  {
    "nom": "Die Tödliche Doris",
    "latitude": 52.5030617,
    "longitude": 13.4208685,
    "ville": "Berlin",
    "pays": "Allemagne",
    "website": ""
  },
  {
    "nom": "Kippenbergers Büro",
    "latitude": 52.5022169,
    "longitude": 13.4168669,
    "ville": "Berlin",
    "pays": "Allemagne",
    "website": ""
  },
  {
    "nom": "Büro Berlin",
    "latitude": 52.50579,
    "longitude": 13.39739,
    "ville": "Berlin",
    "pays": "Allemagne",
    "website": "www.quobo.de/bb/index.html"
  },
  {
    "nom": "KuKucK",
    "latitude": 52.5049,
    "longitude": 13.38511,
    "ville": "Berlin",
    "pays": "Allemagne",
    "website": ""
  },
  {
    "nom": "Kutscherhaus Manfred Stober",
    "latitude": 52.4979575,
    "longitude": 13.3857105,
    "ville": "Berlin",
    "pays": "Allemagne",
    "website": ""
  },
  {
    "nom": "Galerie de LOCH",
    "latitude": 52.54249309999999,
    "longitude": 13.412668,
    "ville": "Berlin",
    "pays": "Allemagne",
    "website": ""
  },
  {
    "nom": "798 District Limited",
    "latitude": 22.2877826,
    "longitude": 114.1489052,
    "ville": "Hong Kong",
    "pays": "Chine",
    "website": "www.798district.com"
  },
  {
    "nom": "Giannozzo Kunstverein",
    "latitude": 52.50444659999999,
    "longitude": 13.2920608,
    "ville": "Berlin",
    "pays": "Allemagne",
    "website": "www.floraberlin.de/giannozzo/prog.htm"
  },
  {
    "nom": "Paranorm",
    "latitude": 52.5042753,
    "longitude": 13.3593306,
    "ville": "Berlin",
    "pays": "Allemagne",
    "website": "www.paranorm.de"
  },
  {
    "nom": "Das Dasein an sich",
    "latitude": 52.4909663,
    "longitude": 13.3764796,
    "ville": "Berlin",
    "pays": "Allemagne",
    "website": ""
  },
  {
    "nom": "Galerie Loulou Lasard",
    "latitude": 52.4885207,
    "longitude": 13.3616175,
    "ville": "Berlin",
    "pays": "Allemagne",
    "website": ""
  },
  {
    "nom": "o zwei",
    "latitude": 52.538183,
    "longitude": 13.4113872,
    "ville": "Berlin",
    "pays": "Allemagne",
    "website": "www.ozwei.net/index.html"
  },
  {
    "nom": "ACUD",
    "latitude": 52.533432,
    "longitude": 13.4009334,
    "ville": "Berlin",
    "pays": "Allemagne",
    "website": "www.acud.de"
  },
  {
    "nom": "Künstlerhaus am Acker",
    "latitude": 52.5313424,
    "longitude": 13.3966893,
    "ville": "Berlin",
    "pays": "Allemagne",
    "website": "25-jahre.kuenstlerhaus-am-acker.de"
  },
  {
    "nom": "Allgirls",
    "latitude": 52.52735269999999,
    "longitude": 13.3967259,
    "ville": "Berlin",
    "pays": "Allemagne",
    "website": "allgirls-berlin.org/chronur.html"
  },
  {
    "nom": "Kunstpunkt",
    "latitude": 52.5297183,
    "longitude": 13.3861032,
    "ville": "Berlin",
    "pays": "Allemagne",
    "website": "www.kunstpunkt.com/pages/galerie_fr.htm"
  },
  {
    "nom": "Espacio O",
    "latitude": -33.4381216,
    "longitude": -70.6408027,
    "ville": "Santiago",
    "pays": "Chile",
    "website": "www.espacioo.com"
  },
  {
    "nom": "DISPLAY",
    "latitude": 44.80175999999999,
    "longitude": 10.33026,
    "ville": "Parma",
    "pays": "Italy",
    "website": "www.spaziodisplay.com"
  },
  {
    "nom": "CAMPO",
    "latitude": 45.1372995,
    "longitude": 10.034677,
    "ville": "Cremona",
    "pays": "Italy",
    "website": "www.facebook.com/associazionecampo/"
  },
  {
    "nom": "Sonnenstube",
    "latitude": 45.9988928,
    "longitude": 8.9468637,
    "ville": "Lugano",
    "pays": "Switzerland",
    "website": "www.diesonnenstube.ch"
  },
  {
    "nom": "Flutgraben e.V",
    "latitude": 52.4970977,
    "longitude": 13.4516979,
    "ville": "Berlin",
    "pays": "Allemagne",
    "website": "flutgraben.org"
  },
  {
    "nom": "La Jetée",
    "latitude": 43.60622499999999,
    "longitude": 3.8634228,
    "ville": "Montpellier",
    "pays": "France",
    "website": "www.la-jetee.fr"
  },
  {
    "nom": "MUCHO MAS !",
    "latitude": 45.08011219999999,
    "longitude": 7.696730800000001,
    "ville": "Torino",
    "pays": "Italy",
    "website": "www.muchomas.gallery"
  },
  {
    "nom": "table",
    "latitude": 41.9406183,
    "longitude": -87.7249191,
    "ville": "Chicago",
    "pays": "United States",
    "website": "tableprojects.com"
  },
  {
    "nom": "La salle de bain",
    "latitude": 45.7704797,
    "longitude": 4.8338689,
    "ville": "Lyon",
    "pays": "France",
    "website": "www.lasalledebains.net/"
  },
  {
    "nom": "AU LIEU - éditions extensibles",
    "latitude": 48.8822221,
    "longitude": 2.3730082,
    "ville": "Paris",
    "pays": "France",
    "website": "www.leseditionsextensibles.com"
  },
  {
    "nom": "ESPAI COLONA",
    "latitude": -42.4834685,
    "longitude": -73.7722345,
    "ville": "Castro",
    "pays": "Chile",
    "website": "www.espaicolona.com"
  },
  {
    "nom": "Atelier von Michael Diller",
    "latitude": 52.54226,
    "longitude": 13.41324,
    "ville": "Berlin",
    "pays": "Allemagne",
    "website": ""
  },
  {
    "nom": "New Media Society",
    "latitude": 35.7172226,
    "longitude": 51.4212825,
    "ville": "Tehran",
    "pays": "Iran",
    "website": "newmediasoc.com"
  },
  {
    "nom": "A4 Sounds",
    "latitude": 53.35729329999999,
    "longitude": -6.265961,
    "ville": "Dublin",
    "pays": "Ireland",
    "website": "a4sounds.org"
  },
  {
    "nom": "A-B Projects",
    "latitude": 34.0352141,
    "longitude": -118.2561115,
    "ville": "Los Angeles",
    "pays": "United States",
    "website": "a-bprojects.com"
  },
  {
    "nom": "Easttopics",
    "latitude": 47.48989539999999,
    "longitude": 19.0599399,
    "ville": "Budapest",
    "pays": "Hungary",
    "website": "www.easttopics.com"
  },
  {
    "nom": "XI box",
    "latitude": 50.6272526,
    "longitude": 3.036593,
    "ville": "Lille",
    "pays": "France",
    "website": "onzebox.org"
  },
  {
    "nom": "LA><ART",
    "latitude": 34.0904259,
    "longitude": -118.3418573,
    "ville": "Hollywood",
    "pays": "United States",
    "website": "laxart.org"
  },
  {
    "nom": "6b",
    "latitude": 48.93738339999999,
    "longitude": 2.3427314,
    "ville": "Saint Denis",
    "pays": "France",
    "website": "www.le6b.fr"
  },
  {
    "nom": "Apparatus Projects",
    "latitude": 41.9706157,
    "longitude": -87.6953772,
    "ville": "Illinois",
    "pays": "United States",
    "website": "www.apparatusprojects.com"
  },
  {
    "nom": "DAS ESSZIMMER",
    "latitude": 50.7100886,
    "longitude": 7.107667999999999,
    "ville": "Bonn",
    "pays": "Allemagne",
    "website": "dasesszimmer.com"
  },
  {
    "nom": "Rectangle",
    "latitude": 50.8296724,
    "longitude": 4.3342271,
    "ville": "Bruxelles",
    "pays": "Belgique",
    "website": "www.rectangle.be"
  },
  {
    "nom": "Sunset RS",
    "latitude": 47.23869699999999,
    "longitude": 6.011189,
    "ville": "Besançon",
    "pays": "France",
    "website": "www.sunset-rs.fr"
  },
  {
    "nom": "LE CUBE – INDEPENDENT ART ROOM",
    "latitude": 34.0164683,
    "longitude": -6.8327078,
    "ville": "Rabat",
    "pays": "Maroc",
    "website": "lecube-art.com"
  },
  {
    "nom": "balak",
    "latitude": 49.7735236,
    "longitude": 4.720825,
    "ville": "Charleville Mézières",
    "pays": "France",
    "website": "www.espacebalak.org"
  },
  {
    "nom": "La Source du Lion",
    "latitude": 33.5872009,
    "longitude": -7.6187224,
    "ville": "Casablanca",
    "pays": "Maroc",
    "website": "lasourcedulion.com"
  },
  {
    "nom": "L’appartement 22",
    "latitude": 34.0190138,
    "longitude": -6.8361937,
    "ville": "Rabat ",
    "pays": "Maroc",
    "website": "www.appartement22.com"
  },
  {
    "nom": "current space",
    "latitude": 39.2947522,
    "longitude": -76.61952,
    "ville": "Baltimore",
    "pays": "United States",
    "website": "www.currentspace.com"
  },
  {
    "nom": "Marwan",
    "latitude": 52.3603853,
    "longitude": 4.8918952,
    "ville": "Amsterdam",
    "pays": "Netherlands",
    "website": "marwan.hotglue.me"
  },
  {
    "nom": "Espacio P",
    "latitude": 40.41527749999999,
    "longitude": -3.7012589,
    "ville": "Madrid",
    "pays": "España",
    "website": "archivoespaciop.net"
  },
  {
    "nom": "MALA FAMA",
    "latitude": 40.3914932,
    "longitude": -3.7326398,
    "ville": "Madrid",
    "pays": "España",
    "website": "malafamaestudios.com"
  },
  {
    "nom": "Rinomina",
    "latitude": 48.8527752,
    "longitude": 2.3642195,
    "ville": "Paris",
    "pays": "France",
    "website": "www.rinomina.com"
  },
  {
    "nom": "VIDEO DRAMA",
    "latitude": 52.36544929999999,
    "longitude": 4.9397391,
    "ville": "Amsterdam",
    "pays": "Netherlands",
    "website": "videodrama288106038.wordpress.com"
  },
  {
    "nom": "warenlift",
    "latitude": 47.3957182,
    "longitude": 8.486571699999999,
    "ville": "Zurich",
    "pays": "Switzerland",
    "website": "warenlift.net"
  },
  {
    "nom": "Sorbonne Artgallery",
    "latitude": 48.8468057,
    "longitude": 2.3448603,
    "ville": "Paris",
    "pays": "France",
    "website": "www.sorbonneartgallery.com"
  },
  {
    "nom": "0gms",
    "latitude": 42.6882064,
    "longitude": 23.3309473,
    "ville": "Sofia",
    "pays": "Bulgaria",
    "website": "www.0gms.com"
  },
  {
    "nom": "Nave Oporto",
    "latitude": 40.3914932,
    "longitude": -3.7326398,
    "ville": "Madrid",
    "pays": "España",
    "website": "www.naveoporto.com"
  },
  {
    "nom": "ELA projects",
    "latitude": 37.968407,
    "longitude": 23.7092462,
    "ville": "Athens",
    "pays": "Grèce",
    "website": "www.facebook.com/elaprojects"
  },
  {
    "nom": "Aparador Monteleón",
    "latitude": 40.4308348,
    "longitude": -3.7041885,
    "ville": "Madrid",
    "pays": "España",
    "website": "www.instagram.com/aparadormonteleon"
  },
  {
    "nom": "AARAU",
    "latitude": 47.3935581,
    "longitude": 8.044682,
    "ville": "Aarau",
    "pays": "Switzerland",
    "website": "www.kunstraumaarau.ch"
  },
  {
    "nom": "Grommet Studio",
    "latitude": 40.72337419999999,
    "longitude": -73.9987232,
    "ville": "New York",
    "pays": "United States",
    "website": ""
  },
  {
    "nom": "MEAN",
    "latitude": 47.2917273,
    "longitude": -2.1947387,
    "ville": "Saint Nazaire",
    "pays": "France",
    "website": "www.mean.blue"
  },
  {
    "nom": "bologna.cc",
    "latitude": 52.3406622,
    "longitude": 4.8679834,
    "ville": "Amsterdam",
    "pays": "Netherlands",
    "website": "bologna.cc"
  },
  {
    "nom": "Centro Tool",
    "latitude": 45.4721591,
    "longitude": 9.190208300000002,
    "ville": "Milano",
    "pays": "Italy",
    "website": ""
  },
  {
    "nom": "QUINCONCE",
    "latitude": 48.13891599999999,
    "longitude": -1.9498561,
    "ville": "Montfort Sur Meu",
    "pays": "France",
    "website": "quinconce-galerie.org"
  },
  {
    "nom": "marcablanca",
    "latitude": 40.4017219,
    "longitude": -3.702879199999999,
    "ville": "Madrid",
    "pays": "España",
    "website": "marcablanca.press"
  },
  {
    "nom": "All Stars",
    "latitude": 46.5211794,
    "longitude": 6.6130228,
    "ville": "Lausanne",
    "pays": "Switzerland",
    "website": "allstars.ch"
  },
  {
    "nom": "TEC - Théorie des Espaces Courbes",
    "latitude": 45.3667645,
    "longitude": 5.595778399999999,
    "ville": "Voiron",
    "pays": "France",
    "website": "la-tec.fr"
  },
  {
    "nom": "Mercato del Sale",
    "latitude": 45.4547151,
    "longitude": 9.201499,
    "ville": "Milano",
    "pays": "Italy",
    "website": ""
  },
  {
    "nom": "Le Château",
    "latitude": 50.8535118,
    "longitude": 4.3501211,
    "ville": "Bruxelles",
    "pays": "Belgique",
    "website": "l-e-c-h-a-t-e-a-u.be"
  },
  {
    "nom": "A.Polina",
    "latitude": 43.1752225,
    "longitude": 5.6049763,
    "ville": "La Ciotat",
    "pays": "France",
    "website": "apolina.org"
  },
  {
    "nom": "MŰTŐ",
    "latitude": 47.4794256,
    "longitude": 19.0525462,
    "ville": "Budapest",
    "pays": "Hungary",
    "website": "www.mutogroup.hu"
  },
  {
    "nom": "Centro Suolo",
    "latitude": 45.4798561,
    "longitude": 9.2133685,
    "ville": "Milano",
    "pays": "Italy",
    "website": ""
  },
  {
    "nom": "PINCE",
    "latitude": 47.5046249,
    "longitude": 19.0233585,
    "ville": "Budapest",
    "pays": "Hungary",
    "website": "pinceproject.com"
  },
  {
    "nom": "Glassbox",
    "latitude": 48.8666407,
    "longitude": 2.3800536,
    "ville": "Paris",
    "pays": "France",
    "website": "www.glassbox.fr"
  },
  {
    "nom": "monopôle",
    "latitude": 45.7756371,
    "longitude": 4.8302318,
    "ville": "Lyon",
    "pays": "France",
    "website": "www.instagram.com/monopole_org"
  },
  {
    "nom": "Les 2 portes",
    "latitude": 47.2356624,
    "longitude": 6.0313379,
    "ville": "Besançon",
    "pays": "France",
    "website": "atelierdes2portes.wixsite.com/besancon"
  },
  {
    "nom": "MUTTER",
    "latitude": 52.35849839999999,
    "longitude": 4.9136574,
    "ville": "Amsterdam",
    "pays": "Netherlands",
    "website": "mutteramsterdam.org"
  },
  {
    "nom": "BOO 2",
    "latitude": 52.3982277,
    "longitude": 4.9398254,
    "ville": "Amsterdam",
    "pays": "Netherlands",
    "website": "www.instagram.com/boo_2projectspace"
  },
  {
    "nom": "TILDE",
    "latitude": 52.3558125,
    "longitude": 4.921848499999999,
    "ville": "Amsterdam",
    "pays": "Netherlands",
    "website": "tilde.space"
  },
  {
    "nom": "Corridor Project Space",
    "latitude": 52.3759763,
    "longitude": 4.9276797,
    "ville": "Amsterdam",
    "pays": "Netherlands",
    "website": "www.corridorprojectspace.com"
  },
  {
    "nom": "Roue libre",
    "latitude": 45.8249863,
    "longitude": 1.2735903,
    "ville": "Limoges",
    "pays": "France",
    "website": "www.facebook.com/people/ROUE-LIBRE/100081164330366/"
  },
  {
    "nom": "Red Cactus Art Studio",
    "latitude": 43.614003,
    "longitude": 3.8800675,
    "ville": "Montpellier",
    "pays": "France",
    "website": "www.instagram.com/redcactusartstudio/"
  },
  {
    "nom": "44 Gassendi",
    "latitude": 48.833215,
    "longitude": 2.3253191,
    "ville": "Paris ",
    "pays": "France",
    "website": "www.360-agence.fr/le-44-gassendi"
  },
  {
    "nom": "IN OUT",
    "latitude": 50.63192799999999,
    "longitude": 3.0689254,
    "ville": "Lilles",
    "pays": "France",
    "website": "inout.lille.free.fr"
  },
  {
    "nom": "NICC",
    "latitude": 50.8408818,
    "longitude": 4.3372429,
    "ville": "Anderlecht",
    "pays": "Belgique",
    "website": "www.nicc.be"
  },
  {
    "nom": "Maison Jaune",
    "latitude": 48.9372556,
    "longitude": 2.3580558,
    "ville": "Saint Denis",
    "pays": "France",
    "website": "www.maisonjaune93.org"
  },
  {
    "nom": "Fashion Moda",
    "latitude": 40.815413,
    "longitude": -73.919236,
    "ville": "New",
    "pays": "United States",
    "website": "en.wikipedia.org/wiki/Fashion_Moda"
  },
  {
    "nom": "L’Assaut de la menuiserie",
    "latitude": 45.4455445,
    "longitude": 4.3836322,
    "ville": "Saint étienne",
    "pays": "France",
    "website": "www.lassaut.fr"
  },
  {
    "nom": "Pamela Artist-run Space",
    "latitude": 43.8338948,
    "longitude": 4.3505158,
    "ville": "Nîmes",
    "pays": "France",
    "website": "www.instagram.com/pamelaartistrunspace/"
  },
  {
    "nom": "Pauline Perplexe",
    "latitude": 48.804787,
    "longitude": 2.3368129,
    "ville": "Arcueil",
    "pays": "France",
    "website": "www.paulineperplexe.com"
  },
  {
    "nom": "Zoo Galerie",
    "latitude": 47.2119502,
    "longitude": -1.570985,
    "ville": "Nantes",
    "pays": "France",
    "website": "www.zoogalerie.fr"
  },
  {
    "nom": "ARTISTS SPACE",
    "latitude": 40.718015,
    "longitude": -74.00202510000001,
    "ville": "New York",
    "pays": "United States",
    "website": "artistsspace.org"
  },
  {
    "nom": "Atelier White Cubi",
    "latitude": 47.3018359,
    "longitude": 5.0350328,
    "ville": "Dijon",
    "pays": "France",
    "website": "www.facebook.com/atelierwhitecubi/"
  },
  {
    "nom": "Patara Gallery",
    "latitude": 41.7125149,
    "longitude": 44.7517165,
    "ville": "Tbilisi",
    "pays": "Georgia",
    "website": "patara.gallery"
  },
  {
    "nom": "The Clocktower Gallery",
    "latitude": 40.7164583,
    "longitude": -74.00328879999999,
    "ville": "New York",
    "pays": "United States",
    "website": "www.yelp.com/biz/the-clocktower-gallery-new-york"
  },
  {
    "nom": "ART HOUSE",
    "latitude": 42.0661187,
    "longitude": 19.5165215,
    "ville": "Shkodër",
    "pays": "Albanie",
    "website": "www.arthouse.al"
  },
  {
    "nom": "Franklin Furnace",
    "latitude": 40.6913844,
    "longitude": -73.9629858,
    "ville": "New York",
    "pays": "United States",
    "website": "franklinfurnace.org"
  },
  {
    "nom": "The Mothership",
    "latitude": 35.7859952,
    "longitude": -5.8291293,
    "ville": "Tangier",
    "pays": "Maroc",
    "website": "www.mothershiptangier.org"
  },
  {
    "nom": "The Why Not Gallery",
    "latitude": 41.7111406,
    "longitude": 44.7958935,
    "ville": "Tbilisi",
    "pays": "Georgia",
    "website": "www.thewhynotgallery.com"
  },
  {
    "nom": "019",
    "latitude": 51.066909,
    "longitude": 3.7337986,
    "ville": "Gent",
    "pays": "Belgique",
    "website": "019-ghent.org"
  },
  {
    "nom": "Galerie huit",
    "latitude": 48.8524158,
    "longitude": 2.3471354,
    "ville": "Paris",
    "pays": "France",
    "website": "en.wikipedia.org/wiki/Galerie_Huit"
  },
  {
    "nom": "La Cédille qui sourit.",
    "latitude": 43.70410260000001,
    "longitude": 7.311177299999999,
    "ville": "Villefranche Sur Mer",
    "pays": "France",
    "website": ""
  },
  {
    "nom": "Faux Mouvement",
    "latitude": 49.1172396,
    "longitude": 6.1791261,
    "ville": "Metz",
    "pays": "France",
    "website": "www.faux-mouvement.com/"
  },
  {
    "nom": "OCTAVE COWBELL",
    "latitude": 49.1172396,
    "longitude": 6.1791261,
    "ville": "Metz",
    "pays": "France",
    "website": "www.octavecowbell.fr/main.php"
  }
]